[
  {
    "id": 1,
    "name": "台北101觀景台",
    "address": "台北市信義區信義路五段7號89樓",
    "dist": "信義區",
    "lat": 25.0339,
    "long": 121.5644,
    "category": "景點"
  },
  {
    "id": 2,
    "name": "國立故宮博物院",
    "address": "台北市士林區至善路二段221號",
    "dist": "士林區",
    "lat": 25.102,
    "long": 121.5486,
    "category": "文化"
  },
  {
    "id": 3,
    "name": "士林夜市",
    "address": "台北市士林區基河路101號",
    "dist": "士林區",
    "lat": 25.0889,
    "long": 121.5245,
    "category": "夜市"
  },
  {
    "id": 4,
    "name": "中正紀念堂",
    "address": "台北市中正區中山南路21號",
    "dist": "中正區",
    "lat": 25.0346,
    "long": 121.5216,
    "category": "文化"
  },
  {
    "id": 5,
    "name": "龍山寺",
    "address": "台北市萬華區廣州街211號",
    "dist": "萬華區",
    "lat": 25.0368,
    "long": 121.4999,
    "category": "廟宇"
  },
  {
    "id": 6,
    "name": "松山文創園區",
    "address": "台北市信義區光復南路133號",
    "dist": "信義區",
    "lat": 25.0436,
    "long": 121.5606,
    "category": "文創"
  },
  {
    "id": 7,
    "name": "西門紅樓",
    "address": "台北市萬華區成都路10號",
    "dist": "萬華區",
    "lat": 25.0421,
    "long": 121.5056,
    "category": "古蹟"
  },
  {
    "id": 8,
    "name": "大安森林公園",
    "address": "台北市大安區新生南路二段1號",
    "dist": "大安區",
    "lat": 25.0296,
    "long": 121.5362,
    "category": "公園"
  },
  {
    "id": 9,
    "name": "華山1914文化創意產業園區",
    "address": "台北市中正區八德路一段1號",
    "dist": "中正區",
    "lat": 25.0441,
    "long": 121.5293,
    "category": "文創"
  },
  {
    "id": 10,
    "name": "饒河街觀光夜市",
    "address": "台北市松山區饒河街",
    "dist": "松山區",
    "lat": 25.0509,
    "long": 121.5775,
    "category": "夜市"
  },
  {
    "id": 11,
    "name": "寧夏夜市",
    "address": "台北市大同區寧夏路",
    "dist": "大同區",
    "lat": 25.0568,
    "long": 121.5155,
    "category": "夜市"
  },
  {
    "id": 12,
    "name": "台北市立動物園",
    "address": "台北市文山區新光路二段30號",
    "dist": "文山區",
    "lat": 24.9983,
    "long": 121.581,
    "category": "景點"
  },
  {
    "id": 13,
    "name": "貓空纜車",
    "address": "台北市文山區新光路二段8號",
    "dist": "文山區",
    "lat": 24.9961,
    "long": 121.5763,
    "category": "景點"
  },
  {
    "id": 14,
    "name": "北投溫泉博物館",
    "address": "台北市北投區中山路2號",
    "dist": "北投區",
    "lat": 25.1366,
    "long": 121.5073,
    "category": "文化"
  },
  {
    "id": 15,
    "name": "陽明山國家公園",
    "address": "台北市北投區竹子湖路1-20號",
    "dist": "北投區",
    "lat": 25.1558,
    "long": 121.5469,
    "category": "景點"
  },
  {
    "id": 16,
    "name": "行天宮",
    "address": "台北市中山區民權東路二段109號",
    "dist": "中山區",
    "lat": 25.063,
    "long": 121.5338,
    "category": "廟宇"
  },
  {
    "id": 17,
    "name": "迪化街",
    "address": "台北市大同區迪化街一段",
    "dist": "大同區",
    "lat": 25.0558,
    "long": 121.5103,
    "category": "老街"
  },
  {
    "id": 18,
    "name": "公館商圈",
    "address": "台北市中正區羅斯福路四段",
    "dist": "中正區",
    "lat": 25.0158,
    "long": 121.5342,
    "category": "商圈"
  },
  {
    "id": 19,
    "name": "師大夜市",
    "address": "台北市大安區師大路",
    "dist": "大安區",
    "lat": 25.0245,
    "long": 121.5294,
    "category": "夜市"
  },
  {
    "id": 20,
    "name": "美麗華百樂園",
    "address": "台北市中山區敬業三路20號",
    "dist": "中山區",
    "lat": 25.0836,
    "long": 121.5574,
    "category": "購物"
  }
]